<?xml version="1.0" encoding="utf-8"?>
<gpx xmlns:xsd="http://www.w3.org/2001/XMLSchema" xmlns:xsi="http://www.w3.org/2001/XMLSchema-instance" version="1.0" creator="Geo::Gpx" xsi:schemaLocation="http://www.topografix.com/GPX/1/0 http://www.topografix.com/GPX/1/0/gpx.xsd" xmlns="http://www.topografix.com/GPX/1/0">
<time>2013-10-27T16:27:11+00:00</time>
<bounds maxlat="55.8582859" maxlon="55.36301" minlat="25.08504" minlon="-123.82955151" />
<wpt lat="51.59224602" lon="-1.23205695">
<time>2013-10-27T15:03:30+00:00</time>
<name>HintonAshley</name>
<cmt>@SkyNews it&#x27;s a weather system that&#x27;s causing the weather! I&#x27;d never have guessed! Thanks for the info. #ukstorm</cmt>
<url>https://twitter.com/HintonAshley/394479474273955840</url>
</wpt>
<wpt lat="51.12364087" lon="1.29357022">
<time>2013-10-27T15:01:23+00:00</time>
<name>corinne_1991</name>
<cmt>tonight and tomorrow morning should be fun, the downside of driving being one of the main things in my job! #ukstorm</cmt>
<url>https://twitter.com/corinne_1991/394478940573929472</url>
</wpt>
<wpt lat="51.34871615" lon="1.397633">
<time>2013-10-27T14:54:50+00:00</time>
<name>billynolife</name>
<cmt>we&#x27;re all getting a boner over this #ukstorm where in America they have a tornado on a weekly basis &#x26;amp; they couldn&#x27;t give two shits</cmt>
<url>https://twitter.com/billynolife/394477293911158784</url>
</wpt>
<wpt lat="50.43456846" lon="-3.69550021">
<time>2013-10-27T15:14:10+00:00</time>
<name>heart_andy</name>
<cmt>#HeartNews @DC_Police want public to take responsibility for their own safety #UKstorm. 110 extra staff on tonight including 58 specials.</cmt>
<url>https://twitter.com/heart_andy/394482160343982080</url>
</wpt>
<wpt lat="54.0875443" lon="-2.8047122">
<time>2013-10-27T15:11:14+00:00</time>
<name>raggydollnet</name>
<cmt>Latest weather map. Its not looking good!! #ukstorm http://t.co/gmAoclnX6N</cmt>
<url>https://twitter.com/raggydollnet/394481421982900224</url>
</wpt>
<wpt lat="51.55308029" lon="-1.80415559">
<time>2013-10-27T15:08:19+00:00</time>
<name>taramchiro</name>
<cmt>Getting ready for #ukstorm with a mug of tea and a marathon of #greysanatomy #sundayfunday</cmt>
<url>https://twitter.com/taramchiro/394480685249204224</url>
</wpt>
<wpt lat="53.93360009" lon="-1.40206726">
<time>2013-10-27T15:06:37+00:00</time>
<name>atillatherover</name>
<cmt>&#x201C;@HintonAshley: @SkyNews it&#x27;s a weather system that&#x27;s causing the weather!  Really! I blame global warming windbags for #ukstorm</cmt>
<url>https://twitter.com/atillatherover/394480260391391232</url>
</wpt>
<wpt lat="50.80759192" lon="0.26661985">
<time>2013-10-27T15:04:40+00:00</time>
<name>HawkTheSeagull</name>
<cmt>Trains across South suspended until 9AM tomorrow due to a very high risk of falling trees and debris #UKStorm</cmt>
<url>https://twitter.com/HawkTheSeagull/394479769540378624</url>
</wpt>
<wpt lat="51.544522" lon="-0.076574">
<time>2013-10-27T15:04:21+00:00</time>
<name>jc108b</name>
<cmt>Currently having a cup of tea outside wearing a tshirt. Not much doing in London #ukstorm</cmt>
<url>https://twitter.com/jc108b/394479686522511360</url>
</wpt>
<wpt lat="51.64730811" lon="-0.42244763">
<time>2013-10-27T15:03:43+00:00</time>
<name>Hornet7127</name>
<cmt>Have brought one of those garden windmills with the two guys sawing a log. BRING IT ON! #ukstorm</cmt>
<url>https://twitter.com/Hornet7127/394479529299017728</url>
</wpt>
<wpt lat="54.9356761" lon="-2.733128">
<time>2013-10-27T15:34:17+00:00</time>
<name>pacrabtree</name>
<cmt>Update on the approaching storm . Gails widespread.  Take care #ukstorm http://t.co/if57z4j610</cmt>
<url>https://twitter.com/pacrabtree/394487222403338240</url>
</wpt>
<wpt lat="46.46467267" lon="6.89839356">
<time>2013-10-27T15:33:01+00:00</time>
<name>Don_Macanudo</name>
<cmt>The end is nigh!!! #ukstorm 
Repent!!</cmt>
<url>https://twitter.com/Don_Macanudo/394486902633824257</url>
</wpt>
<wpt lat="51.2846" lon="-2.4845091">
<time>2013-10-27T15:28:32+00:00</time>
<name>PeteHelmore</name>
<cmt>Um.... #UKstorm http://t.co/p178bB70jW</cmt>
<url>https://twitter.com/PeteHelmore/394485773028044800</url>
</wpt>
<wpt lat="54.06977173" lon="-2.86957135">
<time>2013-10-27T15:25:59+00:00</time>
<name>Beth_pasha</name>
<cmt>The storm in the uk tomorrow... Scared.&#x1F623;x #ukstorm</cmt>
<url>https://twitter.com/Beth_pasha/394485133367316480</url>
</wpt>
<wpt lat="51.2845739" lon="-2.4845219">
<time>2013-10-27T15:20:32+00:00</time>
<name>PeteHelmore</name>
<cmt>All this hype over a bit of rain. #PutACoatOn #UKstorm</cmt>
<url>https://twitter.com/PeteHelmore/394483760424828929</url>
</wpt>
<wpt lat="53.67655921" lon="-0.44729441">
<time>2013-10-27T15:12:46+00:00</time>
<name>wainexx</name>
<cmt>#britains Severe #gales warning for the #uk .  #Weather  @Hull_Yorkshire @BartonLocal  #ukstorm  @Welcome2Yorks http://t.co/6pXJ5x9fDi</cmt>
<url>https://twitter.com/wainexx/394481807720452097</url>
</wpt>
<wpt lat="50.78720513" lon="0.02276732">
<time>2013-10-27T15:07:19+00:00</time>
<name>AlexandraKellet</name>
<cmt>Spotted! Sensible #peacehaven resident protecting prized gnome collection #ukstorm #theresnoplacelikegnome #donegnomin</cmt>
<url>https://twitter.com/AlexandraKellet/394480433456766976</url>
</wpt>
<wpt lat="50.78368807" lon="0.25894164">
<time>2013-10-27T14:58:53+00:00</time>
<name>denydoodle</name>
<cmt>@UKStorm2013 closer photo of the waves, there were surfers out there #ukstorm #eastbourne http://t.co/2yoC1wGsI7</cmt>
<url>https://twitter.com/denydoodle/394478311680012288</url>
</wpt>
<wpt lat="51.56351904" lon="-0.16839981">
<time>2013-10-27T14:58:10+00:00</time>
<name>davidmlondon</name>
<cmt>Already quite blowy, plenty of leaves coming down. #ukstorm @ Hampstead Heath http://t.co/FfwJbcDwUu</cmt>
<url>https://twitter.com/davidmlondon/394478133724069888</url>
</wpt>
<wpt lat="50.78328767" lon="0.25935972">
<time>2013-10-27T14:57:40+00:00</time>
<name>denydoodle</name>
<cmt>@UKStorm2013 #eastbourne beach about an hour ago, tide coming in #ukstorm http://t.co/7lonXDRPBT</cmt>
<url>https://twitter.com/denydoodle/394478005554524160</url>
</wpt>
<wpt lat="51.59212986" lon="-1.23222899">
<time>2013-10-27T14:55:24+00:00</time>
<name>HintonAshley</name>
<cmt>You&#x27;d think high winds would be good for #treehugging wind turbines, but when the wind (really) blows they have to stop turning! #ukstorm</cmt>
<url>https://twitter.com/HintonAshley/394477436236496896</url>
</wpt>
<wpt lat="50.76033903" lon="0.28312478">
<time>2013-10-27T14:51:09+00:00</time>
<name>denydoodle</name>
<cmt>Waiting surfer #eastbourne #beach #sea #waves #wind #weather #ukstorm #nofilter @ The Grand Hotel http://t.co/3chUlN7ftc</cmt>
<url>https://twitter.com/denydoodle/394476364818292736</url>
</wpt>
<wpt lat="52.57583071" lon="-1.54170038">
<time>2013-10-27T14:50:00+00:00</time>
<name>MarkA380</name>
<cmt>Glad to see many of you following the Met Office storm advice #ukstorm http://t.co/yyBGJBdpAL</cmt>
<url>https://twitter.com/MarkA380/394476076547981312</url>
</wpt>
<wpt lat="50.76033903" lon="0.28312478">
<time>2013-10-27T14:47:08+00:00</time>
<name>denydoodle</name>
<cmt>Wave #eastbourne #beach #sea #ukstorm #nofilter @ The Grand Hotel http://t.co/PL7acz1WGz</cmt>
<url>https://twitter.com/denydoodle/394475355207385088</url>
</wpt>
<wpt lat="50.836247" lon="-0.181496">
<time>2013-10-27T14:47:01+00:00</time>
<name>samrickman</name>
<cmt>Tomorrow is going to be a fun one #ukstorm</cmt>
<url>https://twitter.com/samrickman/394475327193616385</url>
</wpt>
<wpt lat="53.7821078" lon="-1.7513459">
<time>2013-10-27T14:43:25+00:00</time>
<name>Sumerah_K</name>
<cmt>Waiting for the #StJude storm to hit us in the uk kind of scary when we dont normally get storms. Stay safe everyone &#x2661; #Hurricane #ukstorm</cmt>
<url>https://twitter.com/Sumerah_K/394474420204761088</url>
</wpt>
<wpt lat="50.76033903" lon="0.28312478">
<time>2013-10-27T14:42:42+00:00</time>
<name>denydoodle</name>
<cmt>Seagull #eastbourne #beach #sea #waves #ukstorm #windy #weather #igerseastbourne @ The Grand Hotel http://t.co/fU1hIW2bYq</cmt>
<url>https://twitter.com/denydoodle/394474238125821952</url>
</wpt>
<wpt lat="51.28382341" lon="1.06628974">
<time>2013-10-27T14:40:44+00:00</time>
<name>little_gothgirl</name>
<cmt>ok I&#x27;m so scared for getting the train to Liverpool! Hope the train lines are okay #ukstorm</cmt>
<url>https://twitter.com/little_gothgirl/394473745228005376</url>
</wpt>
<wpt lat="50.64286788" lon="-1.39594084">
<time>2013-10-27T14:34:30+00:00</time>
<name>tony_dickinson</name>
<cmt>Take care everyone, sounds like this is gonna be bad! #ukstorm http://t.co/oA6TwrUWK0</cmt>
<url>https://twitter.com/tony_dickinson/394472178051473408</url>
</wpt>
<wpt lat="51.95301889" lon="-1.80585614">
<time>2013-10-27T14:34:11+00:00</time>
<name>benmarsh</name>
<cmt>#ukstorm - Fallen tree on B4077 near Coscombe Grove. Drive safely out there!</cmt>
<url>https://twitter.com/benmarsh/394472098275790848</url>
</wpt>
<wpt lat="53.80979" lon="-1.720284">
<time>2013-10-27T14:32:35+00:00</time>
<name>doctorcdf</name>
<cmt>This too is #Bradford. #ukstorm http://t.co/ZMXR5jOt3F</cmt>
<url>https://twitter.com/doctorcdf/394471692971425792</url>
</wpt>
<wpt lat="51.1047367" lon="-0.2196264">
<time>2013-10-27T14:29:54+00:00</time>
<name>iitsAniqa</name>
<cmt>Not during our holidays mate, come when school starts #ukstorm</cmt>
<url>https://twitter.com/iitsAniqa/394471020327108608</url>
</wpt>
<wpt lat="51.3263992" lon="0.43802652">
<time>2013-10-27T14:25:47+00:00</time>
<name>ChrisHaseltine</name>
<cmt>&#x201C;@LyamWHUFC: Making sure I keep my phone fully charged incase a powercut #priorities #ukstorm&#x201D; good thinking!</cmt>
<url>https://twitter.com/ChrisHaseltine/394469983876829187</url>
</wpt>
<wpt lat="53.95839324" lon="-1.07946282">
<time>2013-10-27T14:25:43+00:00</time>
<name>matthewfoster</name>
<cmt>MT @bbcweather: Monday&#x27;s #ukstorm is developing. It&#x27;s under the cloud circled on the lunchtime satellite pic. Matt http://t.co/FCy7DuuI96</cmt>
<url>https://twitter.com/matthewfoster/394469966101348352</url>
</wpt>
<wpt lat="53.81261877" lon="-1.5714672">
<time>2013-10-27T14:24:56+00:00</time>
<name>ElishaJayne_</name>
<cmt>#UKStorm #HoldOnToYourWig  @charl_simpson &#x1F486;&#x1F486;</cmt>
<url>https://twitter.com/ElishaJayne_/394469770952974336</url>
</wpt>
<wpt lat="51.61900744" lon="0.52538499">
<time>2013-10-27T14:18:16+00:00</time>
<name>Squirrels8</name>
<cmt>Don&#x27;t panic! #ukstorm</cmt>
<url>https://twitter.com/Squirrels8/394468089783648257</url>
</wpt>
<wpt lat="51.7583194" lon="-1.83308342">
<time>2013-10-27T14:10:47+00:00</time>
<name>andywilliamsuk</name>
<cmt>If #ukstorm is quite intense, be interesting to see how technology copes compared to Oct 1987.  We&#x27;ve come a long way since then.</cmt>
<url>https://twitter.com/andywilliamsuk/394466209678516224</url>
</wpt>
<wpt lat="53.5576135" lon="-2.1463531">
<time>2013-10-27T14:08:27+00:00</time>
<name>turtlexo</name>
<cmt>I wonder if this storm will be bad #ukstorm #ukhurricane</cmt>
<url>https://twitter.com/turtlexo/394465620412334080</url>
</wpt>
<wpt lat="51.75831421" lon="-1.8330859">
<time>2013-10-27T14:08:13+00:00</time>
<name>andywilliamsuk</name>
<cmt>Is it me, or is anyone else quite excited about this #ukstorm that is brewing in the Atlantic?</cmt>
<url>https://twitter.com/andywilliamsuk/394465562791002112</url>
</wpt>
<wpt lat="51.1374089" lon="0.8893917">
<time>2013-10-27T14:02:19+00:00</time>
<name>nikki75</name>
<cmt>Starting to get a bit blustery out there... #ukstorm may be on its way??</cmt>
<url>https://twitter.com/nikki75/394464077537624064</url>
</wpt>
<wpt lat="51.6328297" lon="0.3572888">
<time>2013-10-27T13:52:15+00:00</time>
<name>Bert_Digby</name>
<cmt>Here in #Essex the winds are gusting, moderate to strong, partially overcast, breezy. #ukstorm</cmt>
<url>https://twitter.com/Bert_Digby/394461542991032321</url>
</wpt>
<wpt lat="51.4005857" lon="-0.5262515">
<time>2013-10-27T13:51:57+00:00</time>
<name>tjathurman</name>
<cmt>&#x22;This warning has been adjusted to bring forward the end time.&#x22; #ukstorm #stjudestorm http://t.co/C98wNXmtSN</cmt>
<url>https://twitter.com/tjathurman/394461469129318400</url>
</wpt>
<wpt lat="53.4085077" lon="-2.8509953">
<time>2013-10-27T13:49:38+00:00</time>
<name>stevieacko</name>
<cmt>When did we ever give a regular autumn storm a name? Scotland must be pissing themselves. #ukstorm</cmt>
<url>https://twitter.com/stevieacko/394460884745326592</url>
</wpt>
<wpt lat="51.42104841" lon="-0.07012367">
<time>2013-10-27T13:46:33+00:00</time>
<name>tiredbees</name>
<cmt>It&#x27;s coming #ukstorm @ Crystal Palace Park http://t.co/YkfSgJ88GU</cmt>
<url>https://twitter.com/tiredbees/394460109453414400</url>
</wpt>
<wpt lat="51.37084245" lon="-2.38855843">
<time>2013-10-27T13:45:59+00:00</time>
<name>votedave</name>
<cmt>Kite ready. Bring on #ukstorm</cmt>
<url>https://twitter.com/votedave/394459967862083584</url>
</wpt>
<wpt lat="51.52137841" lon="-0.07606661">
<time>2013-10-27T13:43:27+00:00</time>
<name>moronicacid</name>
<cmt>Perhaps better to work from home tomorrow? #UKstorm if only to avoid the overcrowded trains with leaves on the track</cmt>
<url>https://twitter.com/moronicacid/394459328448823296</url>
</wpt>
<wpt lat="51.77096741" lon="0.09194647">
<time>2013-10-27T13:42:17+00:00</time>
<name>gillfleur</name>
<cmt>Quite excited about the storm that&#x27;s on its way. #ukstorm</cmt>
<url>https://twitter.com/gillfleur/394459037057966080</url>
</wpt>
<wpt lat="52.4936729" lon="-2.15694889">
<time>2013-10-27T13:40:34+00:00</time>
<name>richpoyner</name>
<cmt>Here&#x27;s a wind map of the #UKstorm http://t.co/EJInO5SEQd</cmt>
<url>https://twitter.com/richpoyner/394458603098480640</url>
</wpt>
<wpt lat="51.87994336" lon="0.79616136">
<time>2013-10-27T13:37:50+00:00</time>
<name>CrazyGoat1</name>
<cmt>Keeping my Twitter feed glued to @greateranglia to keep up to date for tomorrow as well as watching the website avidly for news.. #ukstorm</cmt>
<url>https://twitter.com/CrazyGoat1/394457917761802241</url>
</wpt>
<wpt lat="52.49348577" lon="-2.15665866">
<time>2013-10-27T13:37:08+00:00</time>
<name>richpoyner</name>
<cmt>So the #UKstorm is nearly here @livingearthhd @bbcweather http://t.co/HUHgs9IIwA</cmt>
<url>https://twitter.com/richpoyner/394457740153987072</url>
</wpt>
<wpt lat="51.88003131" lon="0.79635626">
<time>2013-10-27T13:36:53+00:00</time>
<name>CrazyGoat1</name>
<cmt>Definitely going to be interesting to see if I will be getting to work at all tomorrow. #UKStorm</cmt>
<url>https://twitter.com/CrazyGoat1/394457676316688384</url>
</wpt>
<wpt lat="52.49357232" lon="-2.15661793">
<time>2013-10-27T13:34:14+00:00</time>
<name>richpoyner</name>
<cmt>So the #UKstorm will it later on tonight and into Monday morning. #sleepthoughstorm</cmt>
<url>https://twitter.com/richpoyner/394457010563190784</url>
</wpt>
<wpt lat="50.74780398" lon="-3.40814208">
<time>2013-10-27T13:28:14+00:00</time>
<name>GregDewhurst</name>
<cmt>Watching @AIBarrett on @SkyNews #weather #ukstorm</cmt>
<url>https://twitter.com/GregDewhurst/394455501662334976</url>
</wpt>
<wpt lat="51.62440195" lon="-0.73030238">
<time>2013-10-27T13:27:47+00:00</time>
<name>JenNorthy</name>
<cmt>Come on then storm- take your best shot, let me see what you&#x27;ve got... #ukstorm</cmt>
<url>https://twitter.com/JenNorthy/394455385232670720</url>
</wpt>
<wpt lat="51.50849" lon="-0.167862">
<time>2013-10-27T13:23:21+00:00</time>
<name>AndrewGrill</name>
<cmt>pre #ukstorm walk with the girls (@ Hyde Park w/ 19 others) http://t.co/B1gRIYxRSL</cmt>
<url>https://twitter.com/AndrewGrill/394454270097248256</url>
</wpt>
<wpt lat="52.299815" lon="-1.625783">
<time>2013-10-27T13:23:20+00:00</time>
<name>garethbrown1</name>
<cmt>Warnings issued via @MetOffice app #ukstorm http://t.co/eoz9uKatp1 http://t.co/LidAMGZamF</cmt>
<url>https://twitter.com/garethbrown1/394454265785114625</url>
</wpt>
<wpt lat="51.34731583" lon="-1.36594497">
<time>2013-10-27T13:21:46+00:00</time>
<name>TheJackMurray</name>
<cmt>So before the #UKstorm hits it&#x27;s time for a doggy pub lunch with @georgiaddavies @katehowat</cmt>
<url>https://twitter.com/TheJackMurray/394453873131528192</url>
</wpt>
<wpt lat="51.39968806" lon="-0.34898082">
<time>2013-10-27T13:11:48+00:00</time>
<name>benayers</name>
<cmt>@benmarsh hope you are rustling up a #ukstorm map ;)</cmt>
<url>https://twitter.com/benayers/394451364916789248</url>
</wpt>
<wpt lat="54.58816609" lon="-5.69808535">
<time>2013-10-27T13:03:52+00:00</time>
<name>sloaners2000</name>
<cmt>@bbcnews your reporting on Something that hasn&#x27;t even happened yet yes give a warning tho stop saying what might happen #ukstorm</cmt>
<url>https://twitter.com/sloaners2000/394449367022981120</url>
</wpt>
<wpt lat="51.54719231" lon="-0.19125124">
<time>2013-10-27T13:01:11+00:00</time>
<name>Jowebber1981</name>
<cmt>Pack away the teacups. Dust off the #anorak. The #storm #ukstorm #gales #flooding #apocalypse is&#x2026; http://t.co/CEuTBUbYDN</cmt>
<url>https://twitter.com/Jowebber1981/394448694017523712</url>
</wpt>
<wpt lat="52.05971345" lon="1.25788084">
<time>2013-10-27T12:54:20+00:00</time>
<name>notoriousASJ</name>
<cmt>Be prepared for devastating scenes such as this in the next few days people..... #UKStorm http://t.co/sY1oi51gcG</cmt>
<url>https://twitter.com/notoriousASJ/394446969084858368</url>
</wpt>
<wpt lat="53.50499528" lon="-1.04106967">
<time>2013-10-27T12:52:29+00:00</time>
<name>Andyw100</name>
<cmt>The #UKStorm has just arrived in #Doncaster!</cmt>
<url>https://twitter.com/Andyw100/394446504678932480</url>
</wpt>
<wpt lat="50.71249135" lon="-3.47685587">
<time>2013-10-27T12:45:17+00:00</time>
<name>JustStarryEyed</name>
<cmt>Looking kinda eery here at home! Bring on the storm! #ukstorm #ukweather #Digby #Exeter http://t.co/peLj72Z6DZ</cmt>
<url>https://twitter.com/JustStarryEyed/394444692638924800</url>
</wpt>
<wpt lat="54.23035148" lon="-2.7738518">
<time>2013-10-27T12:38:49+00:00</time>
<name>4NigelThompson</name>
<cmt>The latest word on the #ukstorm http://t.co/fz7imIAT8U follow @WeatherNick for updates plus #lancashire weather @BBCLancashire</cmt>
<url>https://twitter.com/4NigelThompson/394443065496436737</url>
</wpt>
<wpt lat="53.9341155" lon="-1.3880992">
<time>2013-10-27T12:28:55+00:00</time>
<name>giddini</name>
<cmt>Can&#x27;t believe all this bollocks about #ukstorm ! So it&#x27;s going to be a bit windy down south. #growapair. #softsouthernnancys</cmt>
<url>https://twitter.com/giddini/394440573022908416</url>
</wpt>
<wpt lat="44.6604503" lon="0.3880385">
<time>2013-10-27T12:23:47+00:00</time>
<name>Cameramal</name>
<cmt>RT: @ShippingAreas: #humber: SW 7 to severe gale 9, becoming cyclonic severe gale 9 to violent storm 11... http://t.co/nNS2xLzNGr #ukstorm</cmt>
<url>https://twitter.com/Cameramal/394439280795594752</url>
</wpt>
<wpt lat="52.2556447" lon="-2.8114836">
<time>2013-10-27T12:22:15+00:00</time>
<name>inthesticks</name>
<cmt>Goodness. Already pitch dark and blowing a gale with torrential rain. Weather practising for later I presume! #ukstorm #herefordshire</cmt>
<url>https://twitter.com/inthesticks/394438895238410241</url>
</wpt>
<wpt lat="51.44703" lon="-0.36333">
<time>2013-10-27T12:16:16+00:00</time>
<name>GillianKCameron</name>
<cmt>The sun is out now in Twickenham but winds still strong. #UKstorm</cmt>
<url>https://twitter.com/GillianKCameron/394437388258512896</url>
</wpt>
<wpt lat="51.44703" lon="-0.36333">
<time>2013-10-27T12:13:38+00:00</time>
<name>GillianKCameron</name>
<cmt>Dark clouds and the wind is getting stronger in Twickenham. #UKstorm</cmt>
<url>https://twitter.com/GillianKCameron/394436725969522688</url>
</wpt>
<wpt lat="54.0875278" lon="-2.8046515">
<time>2013-10-27T12:08:27+00:00</time>
<name>raggydollnet</name>
<cmt>It&#x27;s getting windy outside. Have #cameron and #osborne been talking shit again #ukstorm</cmt>
<url>https://twitter.com/raggydollnet/394435420853137408</url>
</wpt>
<wpt lat="49.04588464" lon="-122.25778455">
<time>2013-10-27T11:59:32+00:00</time>
<name>DaniSW6</name>
<cmt>There&#x27;s a Twitter account and hashtag for some bad weather in the UK? Huh? #ukstorm</cmt>
<url>https://twitter.com/DaniSW6/394433176468078593</url>
</wpt>
<wpt lat="50.52876899" lon="-4.98915176">
<time>2013-10-27T11:49:04+00:00</time>
<name>Kerri_Powell</name>
<cmt>Perfect day for curling up with a good book #ukstorm #kindle #Divergent &#x1F4D6;&#x1F60A;</cmt>
<url>https://twitter.com/Kerri_Powell/394430544718884864</url>
</wpt>
<wpt lat="51.55816918" lon="-0.05146304">
<time>2013-10-27T11:43:41+00:00</time>
<name>salmarangrez</name>
<cmt>Starting to feel the effects of the #ukstorm ! Really windy outside &#x1F633;</cmt>
<url>https://twitter.com/salmarangrez/394429190898188288</url>
</wpt>
<wpt lat="55.8582859" lon="-4.258769">
<time>2013-10-27T11:40:16+00:00</time>
<name>ellemeesh</name>
<cmt>Yay for the #ukstorm but only if it stops me getting into work #DuvetDay #OnesieTime</cmt>
<url>https://twitter.com/ellemeesh/394428330113794049</url>
</wpt>
<wpt lat="53.39012714" lon="-2.84317596">
<time>2013-10-27T11:16:30+00:00</time>
<name>kevmels</name>
<cmt>Winds strengthening now #ukstorm</cmt>
<url>https://twitter.com/kevmels/394422348168036352</url>
</wpt>
<wpt lat="54.0872104" lon="-2.8052142">
<time>2013-10-27T11:14:50+00:00</time>
<name>raggydollnet</name>
<cmt>Gonna batten down the snatches ready for a good blow later. #gotthewrongendofthestick #ukstorm</cmt>
<url>https://twitter.com/raggydollnet/394421930738319360</url>
</wpt>
<wpt lat="46.18395504" lon="-123.82881896">
<time>2013-10-27T11:09:42+00:00</time>
<name>sct_r</name>
<cmt>MT @EnvAgencySW: Storm due late Sunday/Monday = potential 4 surface water &#x26;amp; river flooding: http://t.co/olB0LMB2gU #floodaware&#x201D; #ukstorm</cmt>
<url>https://twitter.com/sct_r/394420636581236736</url>
</wpt>
<wpt lat="46.18395451" lon="-123.82882035">
<time>2013-10-27T11:07:33+00:00</time>
<name>sct_r</name>
<cmt>MT @TobyWillisonEA: major storm &#x26;amp; lots of leaf on trees not good combination. EA staff across England working 2 reduce flood risk #ukstorm</cmt>
<url>https://twitter.com/sct_r/394420094714920962</url>
</wpt>
<wpt lat="52.54690361" lon="-4.06685486">
<time>2013-10-27T11:04:30+00:00</time>
<name>roadstardriving</name>
<cmt>Roads not too bad at the mo - keep us posted of any flooding or trouble #ukstorm #drivesafe &#x1F699;&#x1F4A6;&#x1F4A6;&#x1F4A6;&#x1F4A6;</cmt>
<url>https://twitter.com/roadstardriving/394419326511742976</url>
</wpt>
<wpt lat="46.18394282" lon="-123.82955151">
<time>2013-10-27T11:04:15+00:00</time>
<name>sct_r</name>
<cmt>&#x201C;@EnvAgency: @tenaciouspenny Lots of advice for public http://t.co/otgLCBmirE. You can find out your flood risk&#x26;amp;signup 4 alerts #ukstorm</cmt>
<url>https://twitter.com/sct_r/394419264532516865</url>
</wpt>
<wpt lat="44.94136188" lon="-122.99955262">
<time>2013-10-27T11:01:58+00:00</time>
<name>OregonMJW</name>
<cmt>&#x201C;@jomakessix: @OOK_Librarian be safe Ooks! Xxxx&#x201D; &#x26;lt;-- oh my yes!  #ukstorm</cmt>
<url>https://twitter.com/OregonMJW/394418692538114049</url>
</wpt>
<wpt lat="51.62162162" lon="-3.22137968">
<time>2013-10-27T10:56:54+00:00</time>
<name>jon_than_</name>
<cmt>RT @DeanPerry RT @MiguelCooper Useful advice for the #ukstorm http://t.co/6CKtQQTIs6 &#x26;lt;&#x26;lt; yep, that all sounds perfectly sensible! :)</cmt>
<url>https://twitter.com/jon_than_/394417417352675328</url>
</wpt>
<wpt lat="44.94159026" lon="-122.99984116">
<time>2013-10-27T10:52:42+00:00</time>
<name>OregonMJW</name>
<cmt>@geekychappy Boy! Tweets are pouring in for #ukstorm. Has it started yet? Hope you got everything. Gulp!</cmt>
<url>https://twitter.com/OregonMJW/394416359615889409</url>
</wpt>
<wpt lat="53.43325092" lon="-2.25556225">
<time>2013-10-27T10:52:27+00:00</time>
<name>paulsarge1977</name>
<cmt>Hate seeing all the graves in southern cemetery the day after a windy night . Flowers and cards scattered everywhere. #ukstorm</cmt>
<url>https://twitter.com/paulsarge1977/394416296374571009</url>
</wpt>
<wpt lat="51.3421077" lon="0.114651">
<time>2013-10-27T10:48:13+00:00</time>
<name>KentSmileStudio</name>
<cmt>Be safe everyone #ukstorm  #ukhurricane</cmt>
<url>https://twitter.com/KentSmileStudio/394415230710996993</url>
</wpt>
<wpt lat="52.50159703" lon="13.38264047">
<time>2013-10-27T10:47:31+00:00</time>
<name>AndrewHavis</name>
<cmt>Dear @Easyjet, will tonight&#x2019;s #UKStorm have any effect on flights between Berlin and Luton, do you know?</cmt>
<url>https://twitter.com/AndrewHavis/394415055070314496</url>
</wpt>
<wpt lat="52.97297297" lon="-1.13698795">
<time>2013-10-27T10:38:57+00:00</time>
<name>EdwardKendal</name>
<cmt>@DriverPotter @SW_Trains #ukstorm Network rail emergency timetables ready check website up to date travel information be careful out there</cmt>
<url>https://twitter.com/EdwardKendal/394412897650376705</url>
</wpt>
<wpt lat="53.58710344" lon="-2.35285866">
<time>2013-10-27T10:25:53+00:00</time>
<name>My_BoyEd</name>
<cmt>@kerriegosneyITV Kerrie what does this mean for Bury? #ukstorm #ukweather Thanks</cmt>
<url>https://twitter.com/My_BoyEd/394409611736150016</url>
</wpt>
<wpt lat="50.72902499" lon="-1.84077549">
<time>2013-10-27T10:25:16+00:00</time>
<name>IngyB</name>
<cmt>Well it&#x27;s lovely and sunny here at the moment. #ukstorm</cmt>
<url>https://twitter.com/IngyB/394409453816414208</url>
</wpt>
<wpt lat="53.58934352" lon="-2.66802706">
<time>2013-10-27T10:22:22+00:00</time>
<name>AdamFozz</name>
<cmt>It&#x27;s the calm before the storm.... #ukstorm</cmt>
<url>https://twitter.com/AdamFozz/394408723307069440</url>
</wpt>
<wpt lat="52.70992639" lon="-2.74727152">
<time>2013-10-27T10:21:17+00:00</time>
<name>gdpreston</name>
<cmt>Do we have a Michael Fish account predicting a gentle breeze yet? #ukstorm</cmt>
<url>https://twitter.com/gdpreston/394408453885947904</url>
</wpt>
<wpt lat="53.6536128" lon="-1.5193839">
<time>2013-10-27T10:19:14+00:00</time>
<name>yellow3ubmarine</name>
<cmt>#ukstorm http://t.co/r0Xj9IQjsm</cmt>
<url>https://twitter.com/yellow3ubmarine/394407938456301568</url>
</wpt>
<wpt lat="53.58711317" lon="-2.35285059">
<time>2013-10-27T10:16:34+00:00</time>
<name>My_BoyEd</name>
<cmt>@metoffice so basically no warnings as such just strong gusts of wind as I understand oh and rain ? #ukstorm</cmt>
<url>https://twitter.com/My_BoyEd/394407264431640577</url>
</wpt>
<wpt lat="51.23971337" lon="-0.56475216">
<time>2013-10-27T10:14:35+00:00</time>
<name>benfurneaux</name>
<cmt>Trying to enjoy my day but then I keep remembering we&#x27;re all going to die tonight. Really putting a downer on things #ukstorm #stormageddon</cmt>
<url>https://twitter.com/benfurneaux/394406764688707584</url>
</wpt>
<wpt lat="51.30658311" lon="-0.07054014">
<time>2013-10-27T10:11:04+00:00</time>
<name>lauraheath2012</name>
<cmt>Going to tidy the garden furniture #ukstorm precautions</cmt>
<url>https://twitter.com/lauraheath2012/394405882991484928</url>
</wpt>
<wpt lat="51.54281437" lon="-1.72371743">
<time>2013-10-27T10:04:56+00:00</time>
<name>m4rko</name>
<cmt>It&#x27;s looking glorious out the back this morning. Well, for now... #ukstorm http://t.co/9uxOGiNShx</cmt>
<url>https://twitter.com/m4rko/394404337453379584</url>
</wpt>
<wpt lat="51.90806836" lon="-0.64482979">
<time>2013-10-27T10:04:10+00:00</time>
<name>AlanFergs</name>
<cmt>@itv2 tonight, 6.25, The Perfect Storm. Hats off to your scheduling team, that&#x27;s priceless. #ukstorm</cmt>
<url>https://twitter.com/AlanFergs/394404143181594624</url>
</wpt>
<wpt lat="40.9526536" lon="29.0942311">
<time>2013-10-27T10:02:13+00:00</time>
<name>deathendless</name>
<cmt>A storm is coming sir ! #ukstorm</cmt>
<url>https://twitter.com/deathendless/394403655803486208</url>
</wpt>
<wpt lat="51.52876148" lon="-0.12476177">
<time>2013-10-27T10:00:38+00:00</time>
<name>FXA1981</name>
<cmt>Looking for some guidance from @ELLEUK and @marieclaireuk as to what we working girls should wear on our way to work tomorrow #ukstorm</cmt>
<url>https://twitter.com/FXA1981/394403255205507072</url>
</wpt>
<wpt lat="51.12601557" lon="-0.06732316">
<time>2013-10-27T09:56:38+00:00</time>
<name>Shardyhaha</name>
<cmt>My parents almost didn&#x2019;t go out shopping for curtains due to the weather. I predict curtain retailers will be hardest hit by the #UKstorm</cmt>
<url>https://twitter.com/Shardyhaha/394402250875207680</url>
</wpt>
<wpt lat="50.83103703" lon="-4.54658836">
<time>2013-10-27T09:54:52+00:00</time>
<name>TweetingTailor</name>
<cmt>Good morning from myself and @JoBrain from the eye of the storm in #Bude. #UKstorm #Wind http://t.co/bqiMsqcQuq</cmt>
<url>https://twitter.com/TweetingTailor/394401803884064768</url>
</wpt>
<wpt lat="51.61992021" lon="-3.45881545">
<time>2013-10-27T09:39:02+00:00</time>
<name>SophieEvans1993</name>
<cmt>Gonna keep these bad boys on for the storm tonight. Just incase I get whisked away again. #ukstorm http://t.co/U5ZFpfnlHS</cmt>
<url>https://twitter.com/SophieEvans1993/394397820687749120</url>
</wpt>
<wpt lat="53.06978662" lon="-1.30086861">
<time>2013-10-27T09:36:25+00:00</time>
<name>stefgingerball</name>
<cmt>&#x22;There&#x27;s a storm coming.....&#x22; #filmquote  #ukstorm ..</cmt>
<url>https://twitter.com/stefgingerball/394397162735665153</url>
</wpt>
<wpt lat="53.55456104" lon="-1.78791701">
<time>2013-10-27T09:34:45+00:00</time>
<name>pipsqueek01</name>
<cmt>Bit fresh out there this morning #ukstorm</cmt>
<url>https://twitter.com/pipsqueek01/394396740591554560</url>
</wpt>
<wpt lat="51.85574777" lon="0.52827277">
<time>2013-10-27T09:34:44+00:00</time>
<name>udcresilience</name>
<cmt>I shall be tidying the garden and putting away the garden chairs today, much to the cats dismay #ukstorm</cmt>
<url>https://twitter.com/udcresilience/394396738817380352</url>
</wpt>
<wpt lat="51.4833231" lon="-3.2058527">
<time>2013-10-27T09:23:54+00:00</time>
<name>talkytalkyhappy</name>
<cmt>@sianelaine have an amazing time hun! Safe journey and good work avoiding #UKstorm</cmt>
<url>https://twitter.com/talkytalkyhappy/394394009470504960</url>
</wpt>
<wpt lat="53.41440288" lon="-3.05183121">
<time>2013-10-27T09:12:29+00:00</time>
<name>MunnsMedia</name>
<cmt>Some local stores and supermarkets near the south coast reporting a rise in the purchase of milk, bread &#x26;amp; eggs ahead of the #ukstorm</cmt>
<url>https://twitter.com/MunnsMedia/394391138163253248</url>
</wpt>
<wpt lat="53.5105095" lon="-2.3120879">
<time>2013-10-27T09:05:49+00:00</time>
<name>kev1n1985</name>
<cmt>Shit, latest weather forecast showing severe gales across the country #ukstorm http://t.co/N9tmyWZOKZ</cmt>
<url>https://twitter.com/kev1n1985/394389461905440768</url>
</wpt>
<wpt lat="51.5061357" lon="-0.4633893">
<time>2013-10-27T08:52:12+00:00</time>
<name>iainfast</name>
<cmt>Remember a severe (amber) warning is still in place for tonight. #ukstorm still looking strong for the south east, south and channel tonight</cmt>
<url>https://twitter.com/iainfast/394386032978051072</url>
</wpt>
<wpt lat="50.78338669" lon="0.2590977">
<time>2013-10-27T08:42:26+00:00</time>
<name>denydoodle</name>
<cmt>@duncanadams #ukstorm I think</cmt>
<url>https://twitter.com/denydoodle/394383576806219776</url>
</wpt>
<wpt lat="39.52703277" lon="2.54552529">
<time>2013-10-27T08:40:32+00:00</time>
<name>HuwJenkins79</name>
<cmt>So I&#x27;m flying into the UK later. What&#x27;s the weather forecast? Settled, clement conditions I imagine.. #ukstorm #notagooddaytofly</cmt>
<url>https://twitter.com/HuwJenkins79/394383098328383488</url>
</wpt>
<wpt lat="51.64052701" lon="-0.05394374">
<time>2013-10-27T08:37:19+00:00</time>
<name>_amypedder</name>
<cmt>&#x201C;@BBCNews: Here&#x27;s an updated forecast as storm approaches UK http://t.co/QxzJGSAo4O #UKstorm http://t.co/zBH4ttGKCE&#x201D;&#x1F625;</cmt>
<url>https://twitter.com/_amypedder/394382286390820864</url>
</wpt>
<wpt lat="50.84885337" lon="-0.18590414">
<time>2013-10-27T08:30:06+00:00</time>
<name>janet_t_55</name>
<cmt>HaHa! RT: @WelshDalaiLama: Here&#x27;s how the storm will (probably) play out on Twitter tomorrow. #UKStorm http://t.co/whvTpIRhX7&#x201D;</cmt>
<url>https://twitter.com/janet_t_55/394380472610193408</url>
</wpt>
<wpt lat="52.03303778" lon="1.26271787">
<time>2013-10-27T08:17:25+00:00</time>
<name>sethbannister</name>
<cmt>Met Office Update: Storm not coming for another 24 hours, public now encouraged to make as many unnecessary journeys as they wish. #ukstorm</cmt>
<url>https://twitter.com/sethbannister/394377281764077568</url>
</wpt>
<wpt lat="50.52875777" lon="-4.98915208">
<time>2013-10-27T08:04:49+00:00</time>
<name>Kerri_Powell</name>
<cmt>Is Monday cancelled in Cornwall due to  #ukstorm ... Please!! &#x2601;&#xFE0F;&#x26A1;&#xFE0F;&#x2614;&#xFE0F;&#x1F300;</cmt>
<url>https://twitter.com/Kerri_Powell/394374107980394496</url>
</wpt>
<wpt lat="51.52164316" lon="0.61056844">
<time>2013-10-27T08:04:30+00:00</time>
<name>2E0NGY</name>
<cmt>First aid kit, torches, matches and candles,  phones ipad 3g and amateur radios charged. #ukstorm</cmt>
<url>https://twitter.com/2E0NGY/394374030876475392</url>
</wpt>
<wpt lat="50.3790377" lon="-4.14778989">
<time>2013-10-27T07:39:54+00:00</time>
<name>JustStarryEyed</name>
<cmt>As long as I can go home today, put up my new bed &#x26;amp; get back to Uni in the evening, then the storm doesn&#x27;t bother me! #ukstorm #ukweather</cmt>
<url>https://twitter.com/JustStarryEyed/394367838779375616</url>
</wpt>
<wpt lat="51.5153516" lon="-3.12434716">
<time>2013-10-27T07:36:46+00:00</time>
<name>ThatRoxxieGirl</name>
<cmt>&#x201C;@BBCNews: Ready for tomorrow&#x27;s storm? Latest forecast http://t.co/vmvftTG3Kq #ukstorm http://t.co/RzSA5wkecX&#x201D; 

It&#x27;s Coming For Us...</cmt>
<url>https://twitter.com/ThatRoxxieGirl/394367051583991808</url>
</wpt>
<wpt lat="51.5063" lon="-0.1271">
<time>2013-10-27T07:19:25+00:00</time>
<name>trendinaliaGB</name>
<cmt>4 verified accounts helped to turn #ukstorm into a Trending Topic. Some of them: @BBCNews, @Telegraph &#x26;amp; @itvnews &#x2014; #trndnl</cmt>
<url>https://twitter.com/trendinaliaGB/394362684100993025</url>
</wpt>
<wpt lat="51.5063" lon="-0.1271">
<time>2013-10-27T07:19:25+00:00</time>
<name>trendinaliaGB</name>
<cmt>The tweet with the most impact of the #ukstorm Trend, was published by @WelshDalaiLama: http://t.co/uS2SH5O4Oc (518 RTs) #trndnl</cmt>
<url>https://twitter.com/trendinaliaGB/394362683245355008</url>
</wpt>
<wpt lat="51.5063" lon="-0.1271">
<time>2013-10-27T07:19:25+00:00</time>
<name>trendinaliaGB</name>
<cmt>#Top3Apps for #ukstorm

Twitter for iPhone 32%
Twitter for Android 15%
Web 11%</cmt>
<url>https://twitter.com/trendinaliaGB/394362682297434112</url>
</wpt>
<wpt lat="51.5063" lon="-0.1271">
<time>2013-10-27T07:19:24+00:00</time>
<name>trendinaliaGB</name>
<cmt>3,020,422 people could have seen the hashtag #ukstorm since its 1st mention until it became a Trending Topic. #trndnl</cmt>
<url>https://twitter.com/trendinaliaGB/394362681387274241</url>
</wpt>
<wpt lat="51.5063" lon="-0.1271">
<time>2013-10-27T07:19:24+00:00</time>
<name>trendinaliaGB</name>
<cmt>2,562 users and 2,590 tweets (2500 RTs) in 7 days made #ukstorm a Trending Topic in United Kingdom. #trndnl</cmt>
<url>https://twitter.com/trendinaliaGB/394362680149934080</url>
</wpt>
<wpt lat="51.5063" lon="-0.1271">
<time>2013-10-27T07:19:04+00:00</time>
<name>trendinaliaGB</name>
<cmt>@Opal_Butterfly the 1st mention of the #ukstorm hashtag appears on your TL. Now is Trending Topic in United Kingdom! #trndnl</cmt>
<url>https://twitter.com/trendinaliaGB/394362597438287872</url>
</wpt>
<wpt lat="53.3831" lon="-1.4645">
<time>2013-10-27T07:12:24+00:00</time>
<name>trendinaliaSZD</name>
<cmt>#ukstorm shows up at this time as Trend in Sheffield http://t.co/MjoPFTzR1F</cmt>
<url>https://twitter.com/trendinaliaSZD/394360919003648000</url>
</wpt>
<wpt lat="51.3899333" lon="-0.0929359">
<time>2013-10-27T07:08:09+00:00</time>
<name>delboy65</name>
<cmt>Michael Fish #ukstorm https://t.co/VaG3YlBzjk</cmt>
<url>https://twitter.com/delboy65/394359847954948096</url>
</wpt>
<wpt lat="51.5383872" lon="-0.0912816">
<time>2013-10-27T06:55:04+00:00</time>
<name>soapachu</name>
<cmt>So the winds have picked up here in Central London. More as it happens. #edgeofyourseat #ukstorm</cmt>
<url>https://twitter.com/soapachu/394356555036241920</url>
</wpt>
<wpt lat="51.14103607" lon="0.8388358">
<time>2013-10-27T06:53:14+00:00</time>
<name>thesleepingwell</name>
<cmt>Morning! I get the feeling that the #ukstorm might be here before Sunday night...</cmt>
<url>https://twitter.com/thesleepingwell/394356097018265600</url>
</wpt>
<wpt lat="51.53457999" lon="0.01388244">
<time>2013-10-27T01:54:36+00:00</time>
<name>vl_borouhhin</name>
<cmt>&#x41F;&#x435;&#x440;&#x435;&#x434;&#x430;&#x44E;&#x442; &#x448;&#x442;&#x43E;&#x440;&#x43C; &#x430;&#x434;&#x43E;&#x432;&#x44B;&#x439; &#x43D;&#x430; &#x432;&#x43E;&#x441;&#x43A;&#x440;&#x435;&#x441;&#x435;&#x43D;&#x44C;&#x435;/&#x43F;&#x43E;&#x43D;&#x435;&#x434;&#x435;&#x43B;&#x44C;&#x43D;&#x438;&#x43A; &#x43D;&#x430; &#x43F;&#x43E;&#x43B; &#x43E;&#x441;&#x442;&#x440;&#x43E;&#x432;&#x430;. &#x414;&#x430;&#x436;&#x435; &#x445;&#x44D;&#x448;&#x442;&#x435;&#x433; &#x43F;&#x440;&#x438;&#x434;&#x443;&#x43C;&#x430;&#x43B;&#x438; #ukstorm , &#x44F; &#x432;&#x43E;&#x43E;&#x431;&#x449;&#x435; &#x442;&#x43E; &#x435;&#x434;&#x443; &#x432; &#x433;&#x43E;&#x441;&#x442;&#x438;, &#x434;&#x430;&#x432;&#x430;&#x439; &#x43F;&#x43E;&#x43B;&#x435;&#x445;&#x447;&#x438;</cmt>
<url>https://twitter.com/vl_borouhhin/394280939461017600</url>
</wpt>
<wpt lat="53.75006658" lon="-2.7133327">
<time>2013-10-27T00:24:17+00:00</time>
<name>srazakazi</name>
<cmt>&#x22;Thunder only happens when it&#x27;s raining...&#x22; &#x1F3B6; Dreams - Fleetwood Mac has been stuck in my head all day. Appropriate. #UKstorm</cmt>
<url>https://twitter.com/srazakazi/394258213975367680</url>
</wpt>
<wpt lat="53.58703673" lon="-2.3528827">
<time>2013-10-27T00:23:14+00:00</time>
<name>My_BoyEd</name>
<cmt>@weatherschool hi can you tell me how Bury will be effected #ukstorm</cmt>
<url>https://twitter.com/My_BoyEd/394257948387835904</url>
</wpt>
<wpt lat="52.03316267" lon="1.2625794">
<time>2013-10-26T23:02:56+00:00</time>
<name>sethbannister</name>
<cmt>ITV2 had the film Twister on tonight. Don&#x27;t worry if you missed it. Should be repeated all day tomorrow on Sky News. #UKStorm</cmt>
<url>https://twitter.com/sethbannister/394237741267189760</url>
</wpt>
<wpt lat="51.8277446" lon="-0.7984422">
<time>2013-10-26T22:40:31+00:00</time>
<name>CindyAnneMunro</name>
<cmt>Rain has started early in @_aylesbury, wind MPH seems to be up aswell. Take care all #ukstorm  @Netweather @BBCNews @ChilternsNT</cmt>
<url>https://twitter.com/CindyAnneMunro/394232097462038528</url>
</wpt>
<wpt lat="51.82776193" lon="-0.82459235">
<time>2013-10-26T22:22:11+00:00</time>
<name>MiguelCooper</name>
<cmt>Useful advice for the #ukstorm http://t.co/UW3iU9SkEZ</cmt>
<url>https://twitter.com/MiguelCooper/394227484176420865</url>
</wpt>
<wpt lat="52.7035192" lon="0.9863592">
<time>2013-10-26T22:13:16+00:00</time>
<name>TheBinMan1</name>
<cmt>@chrismojo West Norfolk residents asked not to put food caddies out Sun night or Monday morning as they may be blown away in wind #ukstorm</cmt>
<url>https://twitter.com/TheBinMan1/394225239926009856</url>
</wpt>
<wpt lat="51.4834211" lon="-0.2561202">
<time>2013-10-26T21:36:52+00:00</time>
<name>yardleyw4</name>
<cmt>I&#x27;m loving the  #ukstorm hashtag. Really quite excited. @inaudiblemum isn&#x27;t, remotely.</cmt>
<url>https://twitter.com/yardleyw4/394216080052584448</url>
</wpt>
<wpt lat="51.49697101" lon="-3.1954971">
<time>2013-10-26T20:45:59+00:00</time>
<name>LiamCorcoran28</name>
<cmt>This is absolutely brilliant. How the #UKStorm will look on twitter tomorrow. http://t.co/Iod0c8RfRp</cmt>
<url>https://twitter.com/LiamCorcoran28/394203277161947137</url>
</wpt>
<wpt lat="51.45689476" lon="-0.97273847">
<time>2013-10-26T20:19:24+00:00</time>
<name>granth1591</name>
<cmt>@nationalrailenq #ukstorm will restrictions on tickets be lifted tomorrow?</cmt>
<url>https://twitter.com/granth1591/394196585938440192</url>
</wpt>
<wpt lat="52.14931493" lon="1.05056638">
<time>2013-10-26T20:13:16+00:00</time>
<name>sambarker1980</name>
<cmt>So is the #ukstorm gonna be as bad as everyone saying?</cmt>
<url>https://twitter.com/sambarker1980/394195040110911488</url>
</wpt>
<wpt lat="51.578896" lon="-2.9841287">
<time>2013-10-26T19:12:44+00:00</time>
<name>Bebb77</name>
<cmt>Times like these I wish I had some hatches to batten down #ukstorm</cmt>
<url>https://twitter.com/Bebb77/394179809401929728</url>
</wpt>
<wpt lat="53.32361167" lon="-1.14469773">
<time>2013-10-26T19:06:25+00:00</time>
<name>mattymv8</name>
<cmt>@Mr_Ree_ supposed to be really bad in the London area I&#x27;ve heard I&#x27;m in Yorkshire so not going to be as bad up here thank god #ukstorm</cmt>
<url>https://twitter.com/mattymv8/394178217579646976</url>
</wpt>
<wpt lat="50.85489" lon="-1.00472">
<time>2013-10-26T18:27:12+00:00</time>
<name>SNsBiggestFan</name>
<cmt>19:30: Most trains are a good service, poor weather conditions forecast on Sunday 27 and Monday 28 October #UKStorm</cmt>
<url>https://twitter.com/SNsBiggestFan/394168351179948033</url>
</wpt>
<wpt lat="50.33123303" lon="-4.5163158">
<time>2013-10-26T18:25:33+00:00</time>
<name>PolperroNews</name>
<cmt>Sounds like the worst is over for tonight! #ukstorm #Polperro</cmt>
<url>https://twitter.com/PolperroNews/394167933993496576</url>
</wpt>
<wpt lat="51.0033" lon="-0.10481">
<time>2013-10-26T17:58:10+00:00</time>
<name>SNsBiggestFan</name>
<cmt>19:00: Most trains are a good service, poor weather conditions forecast on Sunday 27 and Monday 28 October #UKStorm</cmt>
<url>https://twitter.com/SNsBiggestFan/394161042559082496</url>
</wpt>
<wpt lat="53.53316008" lon="-1.14454874">
<time>2013-10-26T17:46:23+00:00</time>
<name>Richa284</name>
<cmt>@eastcoastuk you have a link for an amended timetable on your website re #ukstorm but it doesn&#x27;t work! http://t.co/m5gwcbqZdX</cmt>
<url>https://twitter.com/Richa284/394158078427688960</url>
</wpt>
<wpt lat="51.0033" lon="-0.10481">
<time>2013-10-26T17:32:58+00:00</time>
<name>SNsBiggestFan</name>
<cmt>18:30: Most trains are a good service, poor weather conditions forecast on Sunday 27 and Monday 28 October #UKStorm</cmt>
<url>https://twitter.com/SNsBiggestFan/394154702734368768</url>
</wpt>
<wpt lat="51.0033" lon="-0.10481">
<time>2013-10-26T17:01:16+00:00</time>
<name>SNsBiggestFan</name>
<cmt>18:00: Most trains are a good service, poor weather conditions forecast on Sunday 27 and Monday 28 October #UKStorm</cmt>
<url>https://twitter.com/SNsBiggestFan/394146725180764160</url>
</wpt>
<wpt lat="51.74113658" lon="-4.15705187">
<time>2013-10-26T16:58:46+00:00</time>
<name>robbiebblack</name>
<cmt>@GavinPartridge @DerekTheWeather Great radar image of &#x22;Junior&#x22;...his Dad&#x27;s another 24 hours away! #ukstorm http://t.co/egOOJTX9kx</cmt>
<url>https://twitter.com/robbiebblack/394146094328066049</url>
</wpt>
<wpt lat="51.46326902" lon="-0.58449483">
<time>2013-10-26T15:50:19+00:00</time>
<name>scarletmagpie6</name>
<cmt>&#x22;@WelshDalaiLama: Apparently the storm will be ginger. Prepare for horrendous sunburn &#x26;amp; mild bullying. #UKstorm http://t.co/Jd9pfPqecc&#x22;</cmt>
<url>https://twitter.com/scarletmagpie6/394128868703227904</url>
</wpt>
<wpt lat="53.76425548" lon="-0.61852971">
<time>2013-10-26T15:46:48+00:00</time>
<name>Laura_Duggz</name>
<cmt>Just seen the forecast for Monday! Fucking hell! #ukstorm</cmt>
<url>https://twitter.com/Laura_Duggz/394127983776387072</url>
</wpt>
<wpt lat="50.2161388" lon="-5.2755463">
<time>2013-10-26T15:41:35+00:00</time>
<name>mcflyjess</name>
<cmt>The clouds looks weird #ukstorm</cmt>
<url>https://twitter.com/mcflyjess/394126672167186433</url>
</wpt>
<wpt lat="51.88848519" lon="-0.40582141">
<time>2013-10-26T12:45:13+00:00</time>
<name>marthainch</name>
<cmt>Looks like I&#x27;ll be staying inside this weekend then... #ukstorm http://t.co/aMcCeZfBMg</cmt>
<url>https://twitter.com/marthainch/394082288025485312</url>
</wpt>
<wpt lat="52.66904363" lon="-0.16769255">
<time>2013-10-26T12:14:27+00:00</time>
<name>houghtonbirds</name>
<cmt>@JeremyAnnone So what are the odds that our great @FirstCC &#x26;amp; @NRE_EastCoast services will be severely delayed monday morning? #ukstorm</cmt>
<url>https://twitter.com/houghtonbirds/394074543641600000</url>
</wpt>
<wpt lat="25.08504" lon="55.36301">
<time>2013-10-26T11:30:43+00:00</time>
<name>menavdxb</name>
<cmt>Follow me if you want follow back #followme #Afghan #pakistan #UAE #ukstorm #AmanKaTamasha #EU</cmt>
<url>https://twitter.com/menavdxb/394063537670090752</url>
</wpt>
<wpt lat="51.62329006" lon="-3.94119644">
<time>2013-10-26T09:59:46+00:00</time>
<name>_kathygriff</name>
<cmt>RT:  St Jude&#x27;s Day (October 28) storm via @weatherchannel #ukstorm #ukweather http://t.co/6fnwdPox5f see http://t.co/0upasqcthG for more</cmt>
<url>https://twitter.com/_kathygriff/394040649768792064</url>
</wpt>
<wpt lat="51.36876715" lon="-2.96185391">
<time>2013-10-26T09:53:22+00:00</time>
<name>SorinaNeagu</name>
<cmt>@nationalrailenq what preventative measures are there in place for the severe weather warnings on Monday #UKstorm #lorenzo</cmt>
<url>https://twitter.com/SorinaNeagu/394039037151182848</url>
</wpt>
<wpt lat="51.28919177" lon="-0.52720549">
<time>2013-10-26T09:35:14+00:00</time>
<name>markamcallister</name>
<cmt>I remember in 1987 coming home from school to a couple of our pines down on London Road, Burpham (one on top of council van) #ukstorm</cmt>
<url>https://twitter.com/markamcallister/394034474461437952</url>
</wpt>
<wpt lat="51.28919176" lon="-0.52720562">
<time>2013-10-26T09:33:44+00:00</time>
<name>markamcallister</name>
<cmt>Time to #BePrepared for #ukstorm - appropriate clothing, boots &#x26;amp; torch to hand Sunday night. Expect possible property damage / power cuts</cmt>
<url>https://twitter.com/markamcallister/394034097120890880</url>
</wpt>
<wpt lat="53.49206406" lon="-1.14654696">
<time>2013-10-26T09:19:12+00:00</time>
<name>aidan_hall_</name>
<cmt>&#x201C;@BBCNews: Ready for tomorrow&#x27;s storm? Latest forecast http://t.co/QCmkP7yid4 #ukstorm http://t.co/IxWBqhuMwh&#x201D; bloooooooooody hell</cmt>
<url>https://twitter.com/aidan_hall_/394030440723804160</url>
</wpt>
<wpt lat="52.29450488" lon="-1.56779682">
<time>2013-10-26T09:14:50+00:00</time>
<name>LeeWebb1981</name>
<cmt>&#x201C;@BBCNews: Ready for tomorrow&#x27;s storm? Latest forecast http://t.co/X4TKCf8anb #ukstorm http://t.co/zmTv2eJ8JY&#x201D; There&#x27;s a storm ahead</cmt>
<url>https://twitter.com/LeeWebb1981/394029340775956480</url>
</wpt>
<wpt lat="53.32356492" lon="-1.1449294">
<time>2013-10-25T19:31:01+00:00</time>
<name>mattymv8</name>
<cmt>Can&#x27;t wait for this storm to arrive Monday bring it on eh:)))) #ukweather #random #ukstorm</cmt>
<url>https://twitter.com/mattymv8/393822021488242688</url>
</wpt>
<wpt lat="53.32609413" lon="-1.13939481">
<time>2013-10-25T19:29:27+00:00</time>
<name>mrmattybeck1</name>
<cmt>Can&#x27;t wait for this storm that&#x27;s heading our way Monday bring it on #ukstorm #rain #windy</cmt>
<url>https://twitter.com/mrmattybeck1/393821628532285441</url>
</wpt>
<wpt lat="51.75268267" lon="-1.29669523">
<time>2013-10-25T16:45:48+00:00</time>
<name>marknealweather</name>
<cmt>#ukstorm</cmt>
<url>https://twitter.com/marknealweather/393780444329963520</url>
</wpt>
<wpt lat="51.13471545" lon="0.26339843">
<time>2013-10-25T13:04:07+00:00</time>
<name>njhelyar</name>
<cmt>It&#x27;s coming@russevarno  http://t.co/a8adJQVIIY for Monday&#x27;s #ukstorm. Up to 40mm of rain could also cause surface water flooding. HW&#x201D;</cmt>
<url>https://twitter.com/njhelyar/393724655225556993</url>
</wpt>
</gpx>
